[{"name":"GAIL's Bakery Muswell Hill","latitude":51.590185,"longitude":-0.14609,"category":"basketball-court"},{"name":"Doggy Boutique & Grooming","latitude":51.397455,"longitude":-0.186146,"category":"basketball-court"},{"name":"Smart Dogs","latitude":51.482628,"longitude":-0.21261,"category":"basketball-court"},{"name":"Downtown Woof","latitude":51.447689,"longitude":-0.148501,"category":"basketball-court"},{"name":"Love My Hound","latitude":51.40849,"longitude":-0.039107,"category":"basketball-court"},{"name":"Hot Dogs Grooming Parlour","latitude":51.647089,"longitude":0.053841,"category":"basketball-court"},{"name":"Dogtastic","latitude":51.707826,"longitude":-0.331201,"category":"basketball-court"},{"name":"Lovely Lucky's","latitude":51.489278,"longitude":-0.117674,"category":"basketball-court"},{"name":"Doggone Fabulous","latitude":51.525196,"longitude":-0.191193,"category":"basketball-court"},{"name":"Doherty Dog Training","latitude":51.466025,"longitude":-0.158057,"category":"basketball-court"},{"name":"Pets in the City","latitude":51.518865,"longitude":-0.218947,"category":"basketball-court"},{"name":"The Wag Club","latitude":51.552074,"longitude":-0.196044,"category":"basketball-court"},{"name":"JJ's VIP PETS","latitude":51.582418,"longitude":-0.098454,"category":"basketball-court"},{"name":"Cat Care Callers","latitude":51.429233,"longitude":-0.126407,"category":"basketball-court"},{"name":"Love Luna","latitude":51.421279,"longitude":-0.085619,"category":"basketball-court"},{"name":"K9 Couture Mobile Dog Grooming","latitude":51.598319,"longitude":-0.138476,"category":"basketball-court"},{"name":"The Groom Room Hendon","latitude":51.580994,"longitude":-0.245156,"category":"basketball-court"},{"name":"Curracloe","latitude":51.504431,"longitude":-0.30657,"category":"basketball-court"},{"name":"Melly's Mutts","latitude":51.459742,"longitude":0.040901,"category":"basketball-court"},{"name":"K 9 Grooms","latitude":51.397609,"longitude":-0.186327,"category":"basketball-court"},{"name":"All Four Pets","latitude":51.420729,"longitude":0.002415,"category":"basketball-court"},{"name":"The Groom Room Brentford","latitude":51.48213,"longitude":-0.314275,"category":"basketball-court"},{"name":"Poochs Mobile Pamper Van","latitude":51.637194,"longitude":-0.083375,"category":"basketball-court"},{"name":"Pet Universe Cat & Dog Grooming Salon","latitude":51.594867,"longitude":0.056035,"category":"basketball-court"},{"name":"Pet Universe","latitude":51.594888,"longitude":0.056506,"category":"basketball-court"},{"name":"Classy Canines","latitude":51.631183,"longitude":0.004266,"category":"basketball-court"},{"name":"Absolutely No Tangles","latitude":51.566004,"longitude":-0.35268,"category":"basketball-court"},{"name":"Puppy & Dog Training","latitude":51.655573,"longitude":-0.188784,"category":"basketball-court"},{"name":"Mutleys Grooming Studio","latitude":51.391089,"longitude":0.039449,"category":"basketball-court"},{"name":"Teddy Bear Dog Grooming Limited","latitude":51.455451,"longitude":-0.366447,"category":"basketball-court"},{"name":"Bexleyheath Dog Grooming","latitude":51.478815,"longitude":0.127803,"category":"basketball-court"},{"name":"Puppylove Grooming","latitude":51.424268,"longitude":0.107074,"category":"basketball-court"},{"name":"Pawtastic Gundog Adventures","latitude":51.354553,"longitude":-0.013799,"category":"basketball-court"},{"name":"Waggs Professional Dog Grooming","latitude":51.328033,"longitude":-0.108707,"category":"basketball-court"},{"name":"MiGroomers Dagenham","latitude":51.564975,"longitude":0.146288,"category":"basketball-court"},{"name":"Barbaras Dog Grooming","latitude":51.610261,"longitude":-0.374556,"category":"basketball-court"},{"name":"Pawgeous Pooches","latitude":51.338482,"longitude":-0.260109,"category":"basketball-court"},{"name":"Emma's Groom Room","latitude":51.446137,"longitude":-0.424054,"category":"basketball-court"},{"name":"Purrfect Pooches","latitude":51.45238,"longitude":0.177798,"category":"basketball-court"},{"name":"Dial a Dog Wash","latitude":51.696973,"longitude":-0.027874,"category":"basketball-court"},{"name":"The Grooming Shed","latitude":51.701876,"longitude":-0.028085,"category":"basketball-court"},{"name":"Hollywood Dogs","latitude":51.606785,"longitude":0.166843,"category":"basketball-court"},{"name":"Jay-Jay Groomers","latitude":51.336645,"longitude":-0.320292,"category":"basketball-court"},{"name":"Shaggy to Chic Pet Grooming Service","latitude":51.580983,"longitude":0.190471,"category":"basketball-court"},{"name":"Kingsfield Dog Walkers","latitude":51.642561,"longitude":-0.389362,"category":"basketball-court"},{"name":"Vanity Paws","latitude":51.565271,"longitude":0.199129,"category":"basketball-court"},{"name":"Missy Pawfect Care & Grooming Service","latitude":51.304517,"longitude":-0.234754,"category":"basketball-court"},{"name":"Carrie's Crufty Cuts","latitude":51.456723,"longitude":0.206591,"category":"basketball-court"},{"name":"Dazzlingdogs","latitude":51.391459,"longitude":0.165554,"category":"basketball-court"},{"name":"The Groom Room Walton on Thames","latitude":51.387927,"longitude":-0.418045,"category":"basketball-court"}]