[{"name":"GAIL's Bakery Muswell Hill","lat":51.590185,"lon":-0.14609,"category":"basketball-court"},{"name":"Doggy Boutique & Grooming","lat":51.397455,"lon":-0.186146,"category":"basketball-court"},{"name":"Smart Dogs","lat":51.482628,"lon":-0.21261,"category":"basketball-court"},{"name":"Downtown Woof","lat":51.447689,"lon":-0.148501,"category":"basketball-court"},{"name":"Love My Hound","lat":51.40849,"lon":-0.039107,"category":"basketball-court"},{"name":"Hot Dogs Grooming Parlour","lat":51.647089,"lon":0.053841,"category":"basketball-court"},{"name":"Dogtastic","lat":51.707826,"lon":-0.331201,"category":"basketball-court"},{"name":"Lovely Lucky's","lat":51.489278,"lon":-0.117674,"category":"basketball-court"},{"name":"Doggone Fabulous","lat":51.525196,"lon":-0.191193,"category":"basketball-court"},{"name":"Doherty Dog Training","lat":51.466025,"lon":-0.158057,"category":"basketball-court"},{"name":"Pets in the City","lat":51.518865,"lon":-0.218947,"category":"basketball-court"},{"name":"The Wag Club","lat":51.552074,"lon":-0.196044,"category":"basketball-court"},{"name":"JJ's VIP PETS","lat":51.582418,"lon":-0.098454,"category":"basketball-court"},{"name":"Cat Care Callers","lat":51.429233,"lon":-0.126407,"category":"basketball-court"},{"name":"Love Luna","lat":51.421279,"lon":-0.085619,"category":"basketball-court"},{"name":"K9 Couture Mobile Dog Grooming","lat":51.598319,"lon":-0.138476,"category":"basketball-court"},{"name":"The Groom Room Hendon","lat":51.580994,"lon":-0.245156,"category":"basketball-court"},{"name":"Curracloe","lat":51.504431,"lon":-0.30657,"category":"basketball-court"},{"name":"Melly's Mutts","lat":51.459742,"lon":0.040901,"category":"basketball-court"},{"name":"K 9 Grooms","lat":51.397609,"lon":-0.186327,"category":"basketball-court"},{"name":"All Four Pets","lat":51.420729,"lon":0.002415,"category":"basketball-court"},{"name":"The Groom Room Brentford","lat":51.48213,"lon":-0.314275,"category":"basketball-court"},{"name":"Poochs Mobile Pamper Van","lat":51.637194,"lon":-0.083375,"category":"basketball-court"},{"name":"Pet Universe Cat & Dog Grooming Salon","lat":51.594867,"lon":0.056035,"category":"basketball-court"},{"name":"Pet Universe","lat":51.594888,"lon":0.056506,"category":"basketball-court"},{"name":"Classy Canines","lat":51.631183,"lon":0.004266,"category":"basketball-court"},{"name":"Absolutely No Tangles","lat":51.566004,"lon":-0.35268,"category":"basketball-court"},{"name":"Puppy & Dog Training","lat":51.655573,"lon":-0.188784,"category":"basketball-court"},{"name":"Mutleys Grooming Studio","lat":51.391089,"lon":0.039449,"category":"basketball-court"},{"name":"Teddy Bear Dog Grooming Limited","lat":51.455451,"lon":-0.366447,"category":"basketball-court"},{"name":"Bexleyheath Dog Grooming","lat":51.478815,"lon":0.127803,"category":"basketball-court"},{"name":"Puppylove Grooming","lat":51.424268,"lon":0.107074,"category":"basketball-court"},{"name":"Pawtastic Gundog Adventures","lat":51.354553,"lon":-0.013799,"category":"basketball-court"},{"name":"Waggs Professional Dog Grooming","lat":51.328033,"lon":-0.108707,"category":"basketball-court"},{"name":"MiGroomers Dagenham","lat":51.564975,"lon":0.146288,"category":"basketball-court"},{"name":"Barbaras Dog Grooming","lat":51.610261,"lon":-0.374556,"category":"basketball-court"},{"name":"Pawgeous Pooches","lat":51.338482,"lon":-0.260109,"category":"basketball-court"},{"name":"Emma's Groom Room","lat":51.446137,"lon":-0.424054,"category":"basketball-court"},{"name":"Purrfect Pooches","lat":51.45238,"lon":0.177798,"category":"basketball-court"},{"name":"Dial a Dog Wash","lat":51.696973,"lon":-0.027874,"category":"basketball-court"},{"name":"The Grooming Shed","lat":51.701876,"lon":-0.028085,"category":"basketball-court"},{"name":"Hollywood Dogs","lat":51.606785,"lon":0.166843,"category":"basketball-court"},{"name":"Jay-Jay Groomers","lat":51.336645,"lon":-0.320292,"category":"basketball-court"},{"name":"Shaggy to Chic Pet Grooming Service","lat":51.580983,"lon":0.190471,"category":"basketball-court"},{"name":"Kingsfield Dog Walkers","lat":51.642561,"lon":-0.389362,"category":"basketball-court"},{"name":"Vanity Paws","lat":51.565271,"lon":0.199129,"category":"basketball-court"},{"name":"Missy Pawfect Care & Grooming Service","lat":51.304517,"lon":-0.234754,"category":"basketball-court"},{"name":"Carrie's Crufty Cuts","lat":51.456723,"lon":0.206591,"category":"basketball-court"},{"name":"Dazzlingdogs","lat":51.391459,"lon":0.165554,"category":"basketball-court"},{"name":"The Groom Room Walton on Thames","lat":51.387927,"lon":-0.418045,"category":"basketball-court"}]