[{"name":"Stuyvesant Town Basketball Courts","latitude":40.732345,"longitude":-73.979407,"category":"basketball-court"},{"name":"Rucker Park Basketball Courts","latitude":40.829736,"longitude":-73.936358,"category":"basketball-court"},{"name":"West 4th Street Courts","latitude":40.731228,"longitude":-74.000757,"category":"basketball-court"},{"name":"Hudson River Park Basketball Court","latitude":40.718869,"longitude":-74.012884,"category":"basketball-court"},{"name":"Dyckman Basketball Court","latitude":40.862664,"longitude":-73.920891,"category":"basketball-court"},{"name":"Basketball Courts","latitude":40.725705,"longitude":-74.011409,"category":"basketball-court"},{"name":"Jordan Terminal 23","latitude":40.749365,"longitude":-73.990423,"category":"basketball-court"},{"name":"Marvin's Court","latitude":40.713892,"longitude":-74.009456,"category":"basketball-court"},{"name":"Sugar NYC","latitude":40.709285,"longitude":-74.006349,"category":"basketball-court"},{"name":"45 Wall Basketball Court","latitude":40.706223,"longitude":-74.00985,"category":"basketball-court"},{"name":"15 William Basketball Court","latitude":40.705347,"longitude":-74.010339,"category":"basketball-court"},{"name":"Lehman High School Gym","latitude":40.70576,"longitude":-74.014981,"category":"basketball-court"},{"name":"Masaryk Basketball","latitude":40.717374,"longitude":-73.980524,"category":"basketball-court"},{"name":"BTSH Hockey League","latitude":40.724199,"longitude":-73.981446,"category":"basketball-court"},{"name":"Zogsports- Stuyvesant Town Bball Court","latitude":40.731429,"longitude":-73.981379,"category":"basketball-court"},{"name":"Playground 9- Basketball Court\/Sprinklers","latitude":40.732173,"longitude":-73.979793,"category":"basketball-court"},{"name":"William Sheridan Courts","latitude":40.715371,"longitude":-73.964778,"category":"basketball-court"},{"name":"Church Square Park Basketball Courts","latitude":40.741938,"longitude":-74.031314,"category":"basketball-court"},{"name":"Basketball Gym At The Dylan","latitude":40.746532,"longitude":-73.985464,"category":"basketball-court"},{"name":"McCarren Park Basketball Courts","latitude":40.71699,"longitude":-73.956722,"category":"basketball-court"},{"name":"Madison Club","latitude":40.750471,"longitude":-73.993437,"category":"basketball-court"},{"name":"The Post","latitude":40.725252,"longitude":-73.954334,"category":"basketball-court"},{"name":"Robert Moses Basketball Courts","latitude":40.748117,"longitude":-73.968711,"category":"basketball-court"},{"name":"UN Basketball Courts","latitude":40.748064,"longitude":-73.968665,"category":"basketball-court"},{"name":"14th Street Viaduct Basketball Court","latitude":40.754792,"longitude":-74.034179,"category":"basketball-court"},{"name":"ABC Hoops NYC Midtown West Arena","latitude":40.763658,"longitude":-73.990679,"category":"basketball-court"},{"name":"Harborview Basketball Courts","latitude":40.768133,"longitude":-73.990644,"category":"basketball-court"},{"name":"LINC Basketball Court","latitude":40.74865,"longitude":-73.942745,"category":"basketball-court"},{"name":"Queensbridge Basketball Courts","latitude":40.755053,"longitude":-73.949454,"category":"basketball-court"},{"name":"Kosciuszko st payground nyc","latitude":40.693266,"longitude":-73.928325,"category":"basketball-court"},{"name":"Charles Barkley Center","latitude":40.661693,"longitude":-73.958035,"category":"basketball-court"},{"name":"NY Urban Basketball","latitude":40.785851,"longitude":-73.974286,"category":"basketball-court"},{"name":"Valhalla Courts","latitude":40.636126,"longitude":-74.020535,"category":"basketball-court"},{"name":"Trinity School - Advertising Basketball League","latitude":40.79047,"longitude":-73.971143,"category":"basketball-court"},{"name":"Tilden Playground","latitude":40.649707,"longitude":-73.932687,"category":"basketball-court"},{"name":"Aron Hall Basketball Courts","latitude":40.788057,"longitude":-73.952428,"category":"basketball-court"},{"name":"North Meadow Basketball Courts","latitude":40.791165,"longitude":-73.959323,"category":"basketball-court"},{"name":"Happy Warrior Playground Basketball Courts","latitude":40.79577,"longitude":-73.96877,"category":"basketball-court"},{"name":"PS 145 Basketball Courts","latitude":40.798393,"longitude":-73.965593,"category":"basketball-court"},{"name":"Franklin Plaza Ball Courts","latitude":40.79181,"longitude":-73.943261,"category":"basketball-court"},{"name":"Riverside Park Basketball Courts","latitude":40.806162,"longitude":-73.96983,"category":"basketball-court"},{"name":"Morningside Park Basketball Court","latitude":40.80306,"longitude":-73.958646,"category":"basketball-court"},{"name":"Seth Low Basketball Court","latitude":40.603406,"longitude":-73.985746,"category":"basketball-court"},{"name":"Marine Park Basketball Courts","latitude":40.608548,"longitude":-73.936784,"category":"basketball-court"},{"name":"First Street Basketball Courts","latitude":40.646217,"longitude":-74.134001,"category":"basketball-court"},{"name":"Queens BasketBall Court","latitude":40.768523,"longitude":-73.868356,"category":"basketball-court"},{"name":"Riverbank State Park Athletics","latitude":40.826267,"longitude":-73.956099,"category":"basketball-court"},{"name":"Boystown Gymnasium","latitude":40.768953,"longitude":-74.151834,"category":"basketball-court"},{"name":"Roberto Clemente State Park","latitude":40.85254,"longitude":-73.92169,"category":"basketball-court"},{"name":"EBC Rucker Park","latitude":40.829566,"longitude":-73.936658,"category":"basketball-court"}]