[{"name":"Stuyvesant Town Basketball Courts","lat":40.732345,"lon":-73.979407,"category":"basketball-court"},{"name":"Rucker Park Basketball Courts","lat":40.829736,"lon":-73.936358,"category":"basketball-court"},{"name":"West 4th Street Courts","lat":40.731228,"lon":-74.000757,"category":"basketball-court"},{"name":"Hudson River Park Basketball Court","lat":40.718869,"lon":-74.012884,"category":"basketball-court"},{"name":"Dyckman Basketball Court","lat":40.862664,"lon":-73.920891,"category":"basketball-court"},{"name":"Basketball Courts","lat":40.725705,"lon":-74.011409,"category":"basketball-court"},{"name":"Jordan Terminal 23","lat":40.749365,"lon":-73.990423,"category":"basketball-court"},{"name":"Marvin's Court","lat":40.713892,"lon":-74.009456,"category":"basketball-court"},{"name":"Sugar NYC","lat":40.709285,"lon":-74.006349,"category":"basketball-court"},{"name":"45 Wall Basketball Court","lat":40.706223,"lon":-74.00985,"category":"basketball-court"},{"name":"15 William Basketball Court","lat":40.705347,"lon":-74.010339,"category":"basketball-court"},{"name":"Lehman High School Gym","lat":40.70576,"lon":-74.014981,"category":"basketball-court"},{"name":"Masaryk Basketball","lat":40.717374,"lon":-73.980524,"category":"basketball-court"},{"name":"BTSH Hockey League","lat":40.724199,"lon":-73.981446,"category":"basketball-court"},{"name":"Zogsports- Stuyvesant Town Bball Court","lat":40.731429,"lon":-73.981379,"category":"basketball-court"},{"name":"Playground 9- Basketball Court\/Sprinklers","lat":40.732173,"lon":-73.979793,"category":"basketball-court"},{"name":"William Sheridan Courts","lat":40.715371,"lon":-73.964778,"category":"basketball-court"},{"name":"Church Square Park Basketball Courts","lat":40.741938,"lon":-74.031314,"category":"basketball-court"},{"name":"Basketball Gym At The Dylan","lat":40.746532,"lon":-73.985464,"category":"basketball-court"},{"name":"McCarren Park Basketball Courts","lat":40.71699,"lon":-73.956722,"category":"basketball-court"},{"name":"Madison Club","lat":40.750471,"lon":-73.993437,"category":"basketball-court"},{"name":"The Post","lat":40.725252,"lon":-73.954334,"category":"basketball-court"},{"name":"Robert Moses Basketball Courts","lat":40.748117,"lon":-73.968711,"category":"basketball-court"},{"name":"UN Basketball Courts","lat":40.748064,"lon":-73.968665,"category":"basketball-court"},{"name":"14th Street Viaduct Basketball Court","lat":40.754792,"lon":-74.034179,"category":"basketball-court"},{"name":"ABC Hoops NYC Midtown West Arena","lat":40.763658,"lon":-73.990679,"category":"basketball-court"},{"name":"Harborview Basketball Courts","lat":40.768133,"lon":-73.990644,"category":"basketball-court"},{"name":"LINC Basketball Court","lat":40.74865,"lon":-73.942745,"category":"basketball-court"},{"name":"Queensbridge Basketball Courts","lat":40.755053,"lon":-73.949454,"category":"basketball-court"},{"name":"Kosciuszko st payground nyc","lat":40.693266,"lon":-73.928325,"category":"basketball-court"},{"name":"Charles Barkley Center","lat":40.661693,"lon":-73.958035,"category":"basketball-court"},{"name":"NY Urban Basketball","lat":40.785851,"lon":-73.974286,"category":"basketball-court"},{"name":"Valhalla Courts","lat":40.636126,"lon":-74.020535,"category":"basketball-court"},{"name":"Trinity School - Advertising Basketball League","lat":40.79047,"lon":-73.971143,"category":"basketball-court"},{"name":"Tilden Playground","lat":40.649707,"lon":-73.932687,"category":"basketball-court"},{"name":"Aron Hall Basketball Courts","lat":40.788057,"lon":-73.952428,"category":"basketball-court"},{"name":"North Meadow Basketball Courts","lat":40.791165,"lon":-73.959323,"category":"basketball-court"},{"name":"Happy Warrior Playground Basketball Courts","lat":40.79577,"lon":-73.96877,"category":"basketball-court"},{"name":"PS 145 Basketball Courts","lat":40.798393,"lon":-73.965593,"category":"basketball-court"},{"name":"Franklin Plaza Ball Courts","lat":40.79181,"lon":-73.943261,"category":"basketball-court"},{"name":"Riverside Park Basketball Courts","lat":40.806162,"lon":-73.96983,"category":"basketball-court"},{"name":"Morningside Park Basketball Court","lat":40.80306,"lon":-73.958646,"category":"basketball-court"},{"name":"Seth Low Basketball Court","lat":40.603406,"lon":-73.985746,"category":"basketball-court"},{"name":"Marine Park Basketball Courts","lat":40.608548,"lon":-73.936784,"category":"basketball-court"},{"name":"First Street Basketball Courts","lat":40.646217,"lon":-74.134001,"category":"basketball-court"},{"name":"Queens BasketBall Court","lat":40.768523,"lon":-73.868356,"category":"basketball-court"},{"name":"Riverbank State Park Athletics","lat":40.826267,"lon":-73.956099,"category":"basketball-court"},{"name":"Boystown Gymnasium","lat":40.768953,"lon":-74.151834,"category":"basketball-court"},{"name":"Roberto Clemente State Park","lat":40.85254,"lon":-73.92169,"category":"basketball-court"},{"name":"EBC Rucker Park","lat":40.829566,"lon":-73.936658,"category":"basketball-court"}]