[{"name":"Berry Basketball Courts","lat":37.772031,"lon":-122.397898,"category":"basketball-court"},{"name":"Soma Rec Center","lat":37.778838,"lon":-122.406328,"category":"basketball-court"},{"name":"Dolores Park Basketball Courts","lat":37.760956,"lon":-122.427849,"category":"basketball-court"},{"name":"Hamilton Basketball Courts","lat":37.784569,"lon":-122.435625,"category":"basketball-court"},{"name":"NBA Nation","lat":37.759168,"lon":-122.412335,"category":"basketball-court"},{"name":"Arterra Mission Bay","lat":37.771896,"lon":-122.397532,"category":"basketball-court"},{"name":"Golden Gate Park Panhandle Basketball Courts","lat":37.771955,"lon":-122.445915,"category":"basketball-court"},{"name":"Alice Marble Basketball Court","lat":37.801395,"lon":-122.420205,"category":"basketball-court"},{"name":"Al Kerr Court","lat":37.763735,"lon":-122.45811,"category":"basketball-court"},{"name":"Bernal Heights Recreation Center","lat":37.738385,"lon":-122.416197,"category":"basketball-court"},{"name":"Bay City Basketball Headquarters","lat":37.781086,"lon":-122.468411,"category":"basketball-court"},{"name":"Baker Beach half court","lat":37.791371,"lon":-122.480608,"category":"basketball-court"},{"name":"Basketball Courts","lat":37.711444,"lon":-122.418046,"category":"basketball-court"},{"name":"Park Merced Basketball Courts","lat":37.723387,"lon":-122.483572,"category":"basketball-court"},{"name":"St Thomas More Catholic School Basketball Court","lat":37.712567,"lon":-122.473403,"category":"basketball-court"},{"name":"Rakuten Performance Center","lat":37.802312,"lon":-122.274154,"category":"basketball-court"},{"name":"North Oakland","lat":37.846557,"lon":-122.282237,"category":"basketball-court"},{"name":"San Pablo Park Basketball Court","lat":37.853744,"lon":-122.282223,"category":"basketball-court"},{"name":"Mosswood Park Basketball Court","lat":37.824629,"lon":-122.261518,"category":"basketball-court"},{"name":"Steph Curry Court","lat":37.737088,"lon":-122.240843,"category":"basketball-court"},{"name":"Gymnasium","lat":37.637546,"lon":-122.490837,"category":"basketball-court"},{"name":"We Basketball","lat":37.876034,"lon":-122.271593,"category":"basketball-court"},{"name":"People's Park Basketball Court","lat":37.86511,"lon":-122.254446,"category":"basketball-court"},{"name":"UPBasketball - Unlimited Potential Basketball","lat":37.598384,"lon":-122.382474,"category":"basketball-court"},{"name":"Tuesday Basketball","lat":37.937728,"lon":-122.311873,"category":"basketball-court"},{"name":"Assumption Gym","lat":37.721238,"lon":-122.135988,"category":"basketball-court"},{"name":"She Got Game Basketball Camp San Francisco","lat":37.784264,"lon":-122.446,"category":"basketball-court"},{"name":"Panhandle Basketball Courts","lat":37.768679,"lon":-122.453452,"category":"basketball-court"},{"name":"SF State Basketball Camp","lat":37.721007,"lon":-122.477128,"category":"basketball-court"},{"name":"Soldier Town","lat":37.79303,"lon":-122.26475,"category":"basketball-court"}]