[{"name":"Berry Basketball Courts","latitude":37.772031,"longitude":-122.397898,"category":"basketball-court"},{"name":"Soma Rec Center","latitude":37.778838,"longitude":-122.406328,"category":"basketball-court"},{"name":"Dolores Park Basketball Courts","latitude":37.760956,"longitude":-122.427849,"category":"basketball-court"},{"name":"Hamilton Basketball Courts","latitude":37.784569,"longitude":-122.435625,"category":"basketball-court"},{"name":"NBA Nation","latitude":37.759168,"longitude":-122.412335,"category":"basketball-court"},{"name":"Arterra Mission Bay","latitude":37.771896,"longitude":-122.397532,"category":"basketball-court"},{"name":"Golden Gate Park Panhandle Basketball Courts","latitude":37.771955,"longitude":-122.445915,"category":"basketball-court"},{"name":"Alice Marble Basketball Court","latitude":37.801395,"longitude":-122.420205,"category":"basketball-court"},{"name":"Al Kerr Court","latitude":37.763735,"longitude":-122.45811,"category":"basketball-court"},{"name":"Bernal Heights Recreation Center","latitude":37.738385,"longitude":-122.416197,"category":"basketball-court"},{"name":"Bay City Basketball Headquarters","latitude":37.781086,"longitude":-122.468411,"category":"basketball-court"},{"name":"Baker Beach half court","latitude":37.791371,"longitude":-122.480608,"category":"basketball-court"},{"name":"Basketball Courts","latitude":37.711444,"longitude":-122.418046,"category":"basketball-court"},{"name":"Park Merced Basketball Courts","latitude":37.723387,"longitude":-122.483572,"category":"basketball-court"},{"name":"St Thomas More Catholic School Basketball Court","latitude":37.712567,"longitude":-122.473403,"category":"basketball-court"},{"name":"Rakuten Performance Center","latitude":37.802312,"longitude":-122.274154,"category":"basketball-court"},{"name":"North Oakland","latitude":37.846557,"longitude":-122.282237,"category":"basketball-court"},{"name":"San Pablo Park Basketball Court","latitude":37.853744,"longitude":-122.282223,"category":"basketball-court"},{"name":"Mosswood Park Basketball Court","latitude":37.824629,"longitude":-122.261518,"category":"basketball-court"},{"name":"Steph Curry Court","latitude":37.737088,"longitude":-122.240843,"category":"basketball-court"},{"name":"Gymnasium","latitude":37.637546,"longitude":-122.490837,"category":"basketball-court"},{"name":"We Basketball","latitude":37.876034,"longitude":-122.271593,"category":"basketball-court"},{"name":"People's Park Basketball Court","latitude":37.86511,"longitude":-122.254446,"category":"basketball-court"},{"name":"UPBasketball - Unlimited Potential Basketball","latitude":37.598384,"longitude":-122.382474,"category":"basketball-court"},{"name":"Tuesday Basketball","latitude":37.937728,"longitude":-122.311873,"category":"basketball-court"},{"name":"Assumption Gym","latitude":37.721238,"longitude":-122.135988,"category":"basketball-court"},{"name":"She Got Game Basketball Camp San Francisco","latitude":37.784264,"longitude":-122.446,"category":"basketball-court"},{"name":"Panhandle Basketball Courts","latitude":37.768679,"longitude":-122.453452,"category":"basketball-court"},{"name":"SF State Basketball Camp","latitude":37.721007,"longitude":-122.477128,"category":"basketball-court"},{"name":"Soldier Town","latitude":37.79303,"longitude":-122.26475,"category":"basketball-court"}]