[{"name":"Public Works","lat":37.768956,"lon":-122.419363,"category":"club"},{"name":"Oasis","lat":37.771782,"lon":-122.414442,"category":"club"},{"name":"Jolene's Bar","lat":37.765554,"lon":-122.413429,"category":"club"},{"name":"The Great Northern","lat":37.767481,"lon":-122.40659,"category":"club"},{"name":"Madrone Art Bar","lat":37.774201,"lon":-122.437404,"category":"club"},{"name":"Club Six","lat":37.781406,"lon":-122.40949,"category":"club"},{"name":"F8 1192 Folsom","lat":37.775283,"lon":-122.409986,"category":"club"},{"name":"The View","lat":37.785207,"lon":-122.404625,"category":"club"},{"name":"Midnight Sun","lat":37.760801,"lon":-122.434146,"category":"club"},{"name":"Bay View Boat Club","lat":37.771064,"lon":-122.386157,"category":"club"},{"name":"Underground SF","lat":37.772415,"lon":-122.429244,"category":"club"},{"name":"Cat Club","lat":37.775367,"lon":-122.409851,"category":"club"},{"name":"Sl\u00e1inte","lat":37.79598,"lon":-122.276658,"category":"club"},{"name":"Sundance Saloon","lat":37.739852,"lon":-122.404675,"category":"club"},{"name":"El Lopo","lat":37.788978,"lon":-122.42069,"category":"club"},{"name":"Blondie's Bar","lat":37.764119,"lon":-122.421944,"category":"club"},{"name":"Beaux","lat":37.763609,"lon":-122.434169,"category":"club"},{"name":"Monarch","lat":37.780935,"lon":-122.408387,"category":"club"},{"name":"The Plough And Stars","lat":37.783261,"lon":-122.460346,"category":"club"},{"name":"DNA Lounge","lat":37.771002,"lon":-122.412675,"category":"club"},{"name":"Pier 23 Cafe","lat":37.803372,"lon":-122.400748,"category":"club"},{"name":"Monroe","lat":37.79795,"lon":-122.405017,"category":"club"},{"name":"Danzhaus Aka The Gingerbread House","lat":37.750074,"lon":-122.396176,"category":"club"},{"name":"Southside Spirit House","lat":37.787118,"lon":-122.397568,"category":"club"},{"name":"Bootie San Francisco","lat":37.771002,"lon":-122.412675,"category":"club"},{"name":"MeloMelo Kava Bar","lat":37.87119,"lon":-122.277394,"category":"club"},{"name":"Hello Stranger","lat":37.806928,"lon":-122.269253,"category":"club"},{"name":"The Wreck Room","lat":37.791186,"lon":-122.417021,"category":"club"},{"name":"White Horse Inn","lat":37.851754,"lon":-122.260498,"category":"club"},{"name":"Ruby Room","lat":37.801507,"lon":-122.263559,"category":"club"},{"name":"Radio","lat":37.803291,"lon":-122.271125,"category":"club"},{"name":"Halcyon","lat":37.771424,"lon":-122.41399,"category":"club"},{"name":"The Mint Karaoke Lounge","lat":37.770221,"lon":-122.425889,"category":"club"},{"name":"Lookout","lat":37.764363,"lon":-122.433282,"category":"club"},{"name":"Latin American Club","lat":37.75544,"lon":-122.4205,"category":"club"},{"name":"1015 Folsom","lat":37.778128,"lon":-122.405784,"category":"club"},{"name":"Death Guild","lat":37.771067,"lon":-122.412679,"category":"club"},{"name":"Make-Out Room","lat":37.755294,"lon":-122.419417,"category":"club"},{"name":"Raven Bar","lat":37.775665,"lon":-122.408936,"category":"club"},{"name":"Space 550","lat":37.739852,"lon":-122.404675,"category":"club"},{"name":"The Swingin' Door","lat":37.545093,"lon":-122.304619,"category":"club"},{"name":"Beauty Bar","lat":37.760396,"lon":-122.41893,"category":"club"},{"name":"Comet Club","lat":37.798191,"lon":-122.435859,"category":"club"},{"name":"Condor Club","lat":37.798052,"lon":-122.406673,"category":"club"},{"name":"Slate Bar","lat":37.765048,"lon":-122.417914,"category":"club"},{"name":"Roccapulco","lat":37.747169,"lon":-122.419129,"category":"club"},{"name":"Temple Nightclub","lat":37.787904,"lon":-122.397112,"category":"club"},{"name":"Milk Bar","lat":37.769544,"lon":-122.452651,"category":"club"},{"name":"Q Bar","lat":37.761624,"lon":-122.435341,"category":"club"},{"name":"Hue SF","lat":37.797934,"lon":-122.404801,"category":"club"}]