[{"name":"Public Works","latitude":37.768956,"longitude":-122.419363,"category":"club"},{"name":"Oasis","latitude":37.771782,"longitude":-122.414442,"category":"club"},{"name":"Jolene's Bar","latitude":37.765554,"longitude":-122.413429,"category":"club"},{"name":"The Great Northern","latitude":37.767481,"longitude":-122.40659,"category":"club"},{"name":"Madrone Art Bar","latitude":37.774201,"longitude":-122.437404,"category":"club"},{"name":"Club Six","latitude":37.781406,"longitude":-122.40949,"category":"club"},{"name":"F8 1192 Folsom","latitude":37.775283,"longitude":-122.409986,"category":"club"},{"name":"The View","latitude":37.785207,"longitude":-122.404625,"category":"club"},{"name":"Midnight Sun","latitude":37.760801,"longitude":-122.434146,"category":"club"},{"name":"Bay View Boat Club","latitude":37.771064,"longitude":-122.386157,"category":"club"},{"name":"Underground SF","latitude":37.772415,"longitude":-122.429244,"category":"club"},{"name":"Cat Club","latitude":37.775367,"longitude":-122.409851,"category":"club"},{"name":"Sl\u00e1inte","latitude":37.79598,"longitude":-122.276658,"category":"club"},{"name":"Sundance Saloon","latitude":37.739852,"longitude":-122.404675,"category":"club"},{"name":"El Lopo","latitude":37.788978,"longitude":-122.42069,"category":"club"},{"name":"Blondie's Bar","latitude":37.764119,"longitude":-122.421944,"category":"club"},{"name":"Beaux","latitude":37.763609,"longitude":-122.434169,"category":"club"},{"name":"Monarch","latitude":37.780935,"longitude":-122.408387,"category":"club"},{"name":"The Plough And Stars","latitude":37.783261,"longitude":-122.460346,"category":"club"},{"name":"DNA Lounge","latitude":37.771002,"longitude":-122.412675,"category":"club"},{"name":"Pier 23 Cafe","latitude":37.803372,"longitude":-122.400748,"category":"club"},{"name":"Monroe","latitude":37.79795,"longitude":-122.405017,"category":"club"},{"name":"Danzhaus Aka The Gingerbread House","latitude":37.750074,"longitude":-122.396176,"category":"club"},{"name":"Southside Spirit House","latitude":37.787118,"longitude":-122.397568,"category":"club"},{"name":"Bootie San Francisco","latitude":37.771002,"longitude":-122.412675,"category":"club"},{"name":"MeloMelo Kava Bar","latitude":37.87119,"longitude":-122.277394,"category":"club"},{"name":"Hello Stranger","latitude":37.806928,"longitude":-122.269253,"category":"club"},{"name":"The Wreck Room","latitude":37.791186,"longitude":-122.417021,"category":"club"},{"name":"White Horse Inn","latitude":37.851754,"longitude":-122.260498,"category":"club"},{"name":"Ruby Room","latitude":37.801507,"longitude":-122.263559,"category":"club"},{"name":"Radio","latitude":37.803291,"longitude":-122.271125,"category":"club"},{"name":"Halcyon","latitude":37.771424,"longitude":-122.41399,"category":"club"},{"name":"The Mint Karaoke Lounge","latitude":37.770221,"longitude":-122.425889,"category":"club"},{"name":"Lookout","latitude":37.764363,"longitude":-122.433282,"category":"club"},{"name":"Latin American Club","latitude":37.75544,"longitude":-122.4205,"category":"club"},{"name":"1015 Folsom","latitude":37.778128,"longitude":-122.405784,"category":"club"},{"name":"Death Guild","latitude":37.771067,"longitude":-122.412679,"category":"club"},{"name":"Make-Out Room","latitude":37.755294,"longitude":-122.419417,"category":"club"},{"name":"Raven Bar","latitude":37.775665,"longitude":-122.408936,"category":"club"},{"name":"Space 550","latitude":37.739852,"longitude":-122.404675,"category":"club"},{"name":"The Swingin' Door","latitude":37.545093,"longitude":-122.304619,"category":"club"},{"name":"Beauty Bar","latitude":37.760396,"longitude":-122.41893,"category":"club"},{"name":"Comet Club","latitude":37.798191,"longitude":-122.435859,"category":"club"},{"name":"Condor Club","latitude":37.798052,"longitude":-122.406673,"category":"club"},{"name":"Slate Bar","latitude":37.765048,"longitude":-122.417914,"category":"club"},{"name":"Roccapulco","latitude":37.747169,"longitude":-122.419129,"category":"club"},{"name":"Temple Nightclub","latitude":37.787904,"longitude":-122.397112,"category":"club"},{"name":"Milk Bar","latitude":37.769544,"longitude":-122.452651,"category":"club"},{"name":"Q Bar","latitude":37.761624,"longitude":-122.435341,"category":"club"},{"name":"Hue SF","latitude":37.797934,"longitude":-122.404801,"category":"club"}]