[{"name":"City College of San Francisco Mission Campus","latitude":37.755083,"longitude":-122.420049,"category":"school"},{"name":"Sunset Elementary School","latitude":37.750835,"longitude":-122.499678,"category":"school"},{"name":"Chinese American International School","latitude":37.775275,"longitude":-122.422111,"category":"school"},{"name":"Children's Day School","latitude":37.764166,"longitude":-122.425172,"category":"school"},{"name":"Creative Arts Charter School","latitude":37.779853,"longitude":-122.435776,"category":"school"},{"name":"McKinley Elementary School","latitude":37.767045,"longitude":-122.436236,"category":"school"},{"name":"Gateway High School","latitude":37.783164,"longitude":-122.437334,"category":"school"},{"name":"Pacific Primary School","latitude":37.775584,"longitude":-122.441615,"category":"school"},{"name":"Live Oak School","latitude":37.763563,"longitude":-122.399263,"category":"school"},{"name":"Harvey Milk Civil Rights Academy","latitude":37.759027,"longitude":-122.436406,"category":"school"},{"name":"Chinese Immersion School at De Avila","latitude":37.769696,"longitude":-122.444276,"category":"school"},{"name":"San Francisco Day School","latitude":37.778074,"longitude":-122.446636,"category":"school"},{"name":"Raoul Wallenberg Traditional High School","latitude":37.780367,"longitude":-122.446127,"category":"school"},{"name":"Lycee Francais La Perouse","latitude":37.768003,"longitude":-122.446755,"category":"school"},{"name":"Daniel Webster Elementary SCHL","latitude":37.760539,"longitude":-122.396075,"category":"school"},{"name":"Town School For Boys","latitude":37.791926,"longitude":-122.440219,"category":"school"},{"name":"Katherine Michiels School","latitude":37.749866,"longitude":-122.422464,"category":"school"},{"name":"New School San Francisco","latitude":37.800905,"longitude":-122.415086,"category":"school"},{"name":"Starr King Elementary School","latitude":37.75324,"longitude":-122.399229,"category":"school"},{"name":"Grattan Elementary School","latitude":37.76329,"longitude":-122.450703,"category":"school"},{"name":"Rooftop Elementary School","latitude":37.754621,"longitude":-122.443597,"category":"school"},{"name":"Paul Revere Elementary School","latitude":37.737285,"longitude":-122.413051,"category":"school"},{"name":"The San Francisco School","latitude":37.732725,"longitude":-122.411564,"category":"school"},{"name":"Argonne Elementary School","latitude":37.775318,"longitude":-122.476569,"category":"school"},{"name":"West Portal Elementary School","latitude":37.743445,"longitude":-122.464497,"category":"school"},{"name":"E R Taylor Elementary School","latitude":37.727629,"longitude":-122.407251,"category":"school"},{"name":"Herbert Hoover Middle School","latitude":37.745388,"longitude":-122.469412,"category":"school"},{"name":"Sunnyside Elementary School","latitude":37.730384,"longitude":-122.448607,"category":"school"},{"name":"San Francisco Community Alt","latitude":37.725946,"longitude":-122.432298,"category":"school"},{"name":"Presidio Middle School","latitude":37.780924,"longitude":-122.489872,"category":"school"},{"name":"Leadership High School","latitude":37.721607,"longitude":-122.445007,"category":"school"},{"name":"Lick Wilmerding High School","latitude":37.72237,"longitude":-122.449134,"category":"school"},{"name":"Katherine Delmar Burke School","latitude":37.783669,"longitude":-122.492831,"category":"school"},{"name":"Lowell High School","latitude":37.730788,"longitude":-122.483799,"category":"school"},{"name":"Jose Ortega Elementary School","latitude":37.716303,"longitude":-122.466464,"category":"school"},{"name":"The Brandeis School of San Francisco","latitude":37.713325,"longitude":-122.475453,"category":"school"},{"name":"Fernando Rivera Intermediate School","latitude":37.676452,"longitude":-122.486573,"category":"school"},{"name":"El Camino High School","latitude":37.666933,"longitude":-122.44141,"category":"school"},{"name":"All Souls Catholic School","latitude":37.657254,"longitude":-122.41528,"category":"school"},{"name":"South San Francisco High School","latitude":37.647806,"longitude":-122.426392,"category":"school"},{"name":"Yu Ming Charter School","latitude":37.847501,"longitude":-122.283584,"category":"school"},{"name":"Westlake Middle School","latitude":37.814664,"longitude":-122.261088,"category":"school"},{"name":"Tamalpais Valley Elementary School","latitude":37.874053,"longitude":-122.527712,"category":"school"},{"name":"Franklin Elementary School","latitude":37.793312,"longitude":-122.248663,"category":"school"},{"name":"American International Montessori School","latitude":37.847364,"longitude":-122.270655,"category":"school"},{"name":"Grand Lake Montessori","latitude":37.815984,"longitude":-122.2509,"category":"school"},{"name":"Monte Verde Elementary","latitude":37.636386,"longitude":-122.45177,"category":"school"},{"name":"Cleveland Elementary School","latitude":37.804093,"longitude":-122.2439,"category":"school"},{"name":"Good Shepherd Catholic School","latitude":37.64193,"longitude":-122.489095,"category":"school"},{"name":"Shu Ren International","latitude":37.870122,"longitude":-122.285899,"category":"school"}]